Unix Arrival Arrival	Unix Arrival Departure	Unix Arrival	City	Region	CC	Locale	Eggs Delivered	Carrots eaten	Latitude	Longitude	Population Num	Population Year	Elevation Meter	Arrival Stoppage Time	Timezone	Wikipedia attr	Country
1703437200	0	1703437200	Santa						0	0				0			
1703437200.0	1703437200.0	1703437200	North Pole, Arctic						90.0	0.0				0.0			
1703437632.0	1703437272.0	1703437560	DSP Satellite Tracking Santa						69.85589050051509	-172.267				72.0			
1703437668.0	1703437578.0	1703437650	Uelen, Russia						66.01684256103084	-169.80916669999996				18.0			Russia
1703437686.0	1703437656.0	1703437680	Lavrentiya, Russia						65.43899348384545	-170.9888889				6.0			
1703437788.0	1703437698.0	1703437770	Anadyr, Russia						64.58474502099625	177.5169444				18.0			Russia
1703438058.0	1703437818.0	1703438010	Magadan, Russia						59.38379767621775	150.8057917				48.0			
1703438730.0	1703438130.0	1703438610	Esso, Russia						55.75176051694891	158.694722				120.0			Russia
1703438754.0	1703438634.0	1703438730	Wake Island, U.S. Minor Outlying Islands						19.165400772537673	166.644989				24.0			
1703439018.0	1703438778.0	1703438970	Majuro, Marshall Islands						7.04362829899485	171.38137				48.0			Marshall Islands
1703439150.0	1703439000.0	1703439120	Yaren, Nauru						-0.5382328236685531	166.917145				30.0			Nauru
1703439264.0	1703439144.0	1703439240	Tarawa, Kiribati						1.320159015264788	172.97905300000002				24.0			Kiribati
1703439474.0	1703439279.0	1703439435	Funafuti, Tuvalu						-8.460481364151244	179.21667				39.0			Tuvalu
1703439651.0	1703439471.0	1703439615	Taga, Samoa						-13.699354471050137	-172.51668449999997				36.0			Samoa
1703439795.0	1703439645.0	1703439765	Tongatapu, Tonga						-21.009201450112194	-175.2035083				30.0			Tonga
1703440125.0	1703439825.0	1703440065	Auckland, New Zealand						-36.69953182037323	174.77042				60.0			New Zealand
1703440137.0	1703440077.0	1703440125	Gisborne, New Zealand						-38.47490580067053	178.01777799999996				12.0			New Zealand
1703440269.0	1703440149.0	1703440245	Christchurch, New Zealand						-43.33889028324138	172.63776700000003				24.0			New Zealand
1703440461.0	1703440281.0	1703440425	Chatham Island, New Zealand						-43.80109318483747	-176.5183194				36.0			New Zealand
1703441109.0	1703440539.0	1703440995	McMurdo Station, Antarctica						-77.7662921762981	166.6718528				114.0			Antarctica
1703441571.0	1703441091.0	1703441475	Queenstown, New Zealand						-44.83870314432942	168.6625				96.0			New Zealand
1703442051.0	1703441571.0	1703441955	Suva, Fiji						-18.01009415577496	178.437576				96.0			Fiji
1703442225.0	1703442000.0	1703442180	Nouméa, New Caledonia						-22.144230331119424	166.45220830000002				45.0			New Caledonia
1703442324.0	1703442204.0	1703442300	Vanuatu						-16.545645175826216	168.022003				24.0			
1703442516.0	1703442336.0	1703442480	Honiara, Solomon Islands						-9.369673770182473	159.94974440000001				36.0			Solomon Islands
1703442516.0	1703442486.0	1703442510	Auki, Solomon Islands						-8.708916887282278	160.699997				6.0			Solomon Islands
1703442870.0	1703442570.0	1703442810	Palikir, Federated States of Micronesia						6.871290007741574	158.158081				60.0			Micronesia
1703443602.0	1703442942.0	1703443470	Kurilsk, Kuril Islands						44.414604564162495	147.146782				132.0			
1703443686.0	1703443506.0	1703443650	Nogliki, Russia						51.62534454532134	143.16666700000002				36.0			Russia
1703444010.0	1703443710.0	1703443950	Yakutsk, Russia						61.88570833631222	129.729507				60.0			Russia
1703444238.0	1703443998.0	1703444190	Birobidzhan, Russia						48.59620123526759	132.932657				48.0			Russia
1703444334.0	1703444214.0	1703444310	Trudovoye, Russia						43.09126077674113	132.083298				24.0			Russia
1703444346.0	1703444316.0	1703444340	Arsenyev, Russia						43.97483817425407	133.2689833				6.0			Russia
1703444484.0	1703444364.0	1703444460	Komsomolsk-on-Amur, Russia						50.377777503485994	137.0				24.0			Russia
1703444568.0	1703444478.0	1703444550	Nevelsk, Sakhalin Island						46.47623844501958	141.851975				18.0			Russia
1703445198.0	1703444658.0	1703445090	San Vincente, Saipan, Northern Mariana Islands						15.056788747613012	145.74000000000004				108.0			Northern Mariana Islands
1703445144.0	1703445099.0	1703445135	Santa Rita, Guam						13.29969578076185	144.66888900000004				9.0			Guam
1703445585.0	1703445210.0	1703445510	Kimbe, Papua New Guinea						-5.51350445906887	150.142807				75.0			Papua New Guinea
1703445618.0	1703445528.0	1703445600	Port Moresby, Papua New Guinea						-9.417271498925949	147.18852200000003				18.0			Papua New Guinea
1703445690.0	1703445615.0	1703445675	Daru, Papua New Guinea						-9.01772439817191	143.207947				15.0			Papua New Guinea
1703445873.0	1703445708.0	1703445840	Cooktown, Australia						-15.37038610160476	145.251528				33.0			Australia
1703446092.0	1703445882.0	1703446050	Rockhampton, Australia						-23.234411785039885	150.503662				42.0			Australia
1703446158.0	1703446068.0	1703446140	Maryborough, Australia						-25.387970263886572	152.7014472				18.0			Australia
1703446212.0	1703446152.0	1703446200	Brisbane, Australia						-27.311680606942904	153.022827				12.0			Australia
1703446380.0	1703446230.0	1703446350	Sydney, Australia						-33.691774002636976	151.206955				30.0			Australia
1703446422.0	1703446362.0	1703446410	Canberra, Australia						-35.125248395704844	149.12655600000002				12.0			Australia
1703446518.0	1703446428.0	1703446500	Melbourne, Australia						-37.631281908164695	144.967148				18.0			Australia
1703446608.0	1703446518.0	1703446590	Hobart, Tasmania						-42.68870699125675	147.325				18.0			Australia
1703446842.0	1703446632.0	1703446800	Adelaide, Australia						-34.745663937381835	138.599884				42.0			Australia
1703447052.0	1703446842.0	1703447010	Alice Springs, Australia						-23.562006546458328	133.880936				42.0			Australia
1703447262.0	1703447052.0	1703447220	Darwin, Australia						-12.38662303050576	130.84315500000002				42.0			Australia
1703447364.0	1703447244.0	1703447340	Dili, East Timor						-8.502165393939741	125.5784806				24.0			Timor-Leste
1703447628.0	1703447388.0	1703447580	Sorong, West Papua						-0.8608661858469409	131.25				48.0			Indonesia
1703447796.0	1703447616.0	1703447760	Babeldaob, Palau						7.4613239686877	134.5775361				36.0			Palau
1703448120.0	1703447820.0	1703448060	Iwo Jima, Japan						24.632844125283146	141.315979				60.0			
1703448492.0	1703448132.0	1703448420	Sapporo, Japan						42.86869885093169	141.35505280000004				72.0			Japan
1703448636.0	1703448456.0	1703448600	Tokyo, Japan						35.488366919953094	139.740921				36.0			Japan
1703448690.0	1703448615.0	1703448675	Kanazawa, Japan						36.377102611172745	136.656417				15.0			Japan
1703448729.0	1703448684.0	1703448720	Nagoya, Japan						35.00230249840144	136.9				9.0			Japan
1703448756.0	1703448726.0	1703448750	Kyoto, Japan						34.84051824945739	135.7526306				6.0			Japan
1703448840.0	1703448765.0	1703448825	Hiroshima, Japan						34.21952280375863	132.4759				15.0			Japan
1703448897.0	1703448837.0	1703448885	Shimonoseki, Japan						33.771940337654755	130.933333				12.0			Japan
1703448957.0	1703448897.0	1703448945	Nagasaki, Japan						32.60370916518912	129.859275				12.0			Japan
1703449161.0	1703448981.0	1703449125	Naha, Okinawa, Japan						26.058880952348638	127.68762200000002				36.0			Japan
1703449377.0	1703449167.0	1703449335	Jeju City, South Korea						33.33597249054642	126.5232				42.0			South Korea
1703449407.0	1703449347.0	1703449395	Busan, South Korea						34.98567504228349	129.066667				12.0			South Korea
1703449467.0	1703449407.0	1703449455	Daejeon, South Korea						36.16746507074037	127.38500000000002				12.0			South Korea
1703449509.0	1703449464.0	1703449500	Seoul, South Korea						37.37131820245768	126.97737900000001				9.0			South Korea
1703449572.0	1703449512.0	1703449560	Pyongyang, North Korea						38.83133029198865	125.73805600000001				12.0			North Korea
1703449632.0	1703449572.0	1703449620	Shenyang, China						41.59736700455232	123.40612				12.0			China
1703449764.0	1703449644.0	1703449740	Harbin, China						45.56283100893288	126.62252000000001				24.0			China
1703449812.0	1703449752.0	1703449800	Mudanjiang, China						44.38622413412136	129.611008				12.0			China
1703450016.0	1703449836.0	1703449980	Great Wall, China						40.486801022229166	117.23193				36.0			China
1703450016.0	1703449986.0	1703450010	Beijing, China						39.71673480022762	116.387909				6.0			China
1703450154.0	1703450034.0	1703450130	Qingdao, China						35.90451180002249	120.34272				24.0			China
1703450274.0	1703450154.0	1703450250	Shanghai, China						31.077299277543382	121.472618				24.0			China
1703450430.0	1703450280.0	1703450400	Taipei, Taiwan						24.933007128620666	121.56419400000001				30.0			Taiwan
1703450760.0	1703450460.0	1703450700	Davao City, Philippines						7.033040822231107	125.61277000000001				60.0			Philippines
1703450916.0	1703450736.0	1703450880	Manila, Philippines						14.51596322380041	121.00588999999998				36.0			Philippines
1703451096.0	1703450916.0	1703451060	Hong Kong						22.11545189229394	114.1667				36.0			
1703451096.0	1703451066.0	1703451090	Guangzhou, China						22.96879325396699	113.267616				6.0			China
1703451234.0	1703451114.0	1703451210	Changsha, China						28.06792052045256	112.939				24.0			China
1703451390.0	1703451240.0	1703451360	Xi'an, China						34.08441211874884	108.93183100000002				30.0			China
1703451504.0	1703451384.0	1703451480	Chongqing, China						29.41699760684027	106.5678667				24.0			China
1703451552.0	1703451492.0	1703451540	Chengdu, China						30.501436485670556	104.071022				12.0			China
1703451720.0	1703451570.0	1703451690	Kunming, China						24.903736829423252	102.702011				30.0			China
1703451942.0	1703451732.0	1703451900	Haikou, China						19.895134340166518	110.3488				42.0			China
1703452260.0	1703451960.0	1703452200	Bandar Seri Begawan, Brunei						4.857759620332332	114.94245900000001				60.0			Brunei
1703452272.0	1703452212.0	1703452260	Bintulu, Malaysia						3.1756811919764116	113.068398				12.0			Malaysia
1703452440.0	1703452290.0	1703452410	Sampit, Indonesia						-2.5163959621293555	112.95000000000002				30.0			Indonesia
1703452770.0	1703452470.0	1703452710	Broome, Australia						-17.84053673666018	122.240517				60.0			Australia
1703452890.0	1703452740.0	1703452860	Newman, Australia						-23.216954429491413	119.73504440000004				30.0			Australia
1703453076.0	1703452896.0	1703453040	Perth, Australia						-31.78046471834766	115.85723900000002				36.0			Australia
1703453148.0	1703453058.0	1703453130	Geraldton, Australia						-28.61420848633435	114.62606799999999				18.0			Australia
1703453598.0	1703453208.0	1703453520	The Settlement, Christmas Island						-10.355283643257186	105.67882220000001				78.0			
1703453754.0	1703453559.0	1703453715	Padang, Indonesia						-0.9436415595194232	100.353056				39.0			Indonesia
1703453931.0	1703453751.0	1703453895	Jakarta, Indonesia						-6.130441803558814	106.82782				36.0			Indonesia
1703454147.0	1703453937.0	1703454105	Natuna Besar, Indonesia						3.921689483786506	108.212586				42.0			Indonesia
1703454285.0	1703454135.0	1703454255	Singapore						1.281531047398344	103.852				30.0			
1703454363.0	1703454273.0	1703454345	Pekanbaru, Indonesia						0.5132114088545973	101.44167				18.0			Indonesia
1703454417.0	1703454357.0	1703454405	Kuala Lumpur, Malaysia						3.083921643246444	101.69117000000001				12.0			Malaysia
1703454477.0	1703454417.0	1703454465	Terengganu, Malaysia						5.294184632079275	103.1341013				12.0			Malaysia
1703454645.0	1703454495.0	1703454615	Hat Yai, Thailand						6.960642887789658	100.46398059999999				30.0			Thailand
1703454687.0	1703454627.0	1703454675	Phi Phi Islands, Thailand						7.692078945840208	98.778908				12.0			Thailand
1703454855.0	1703454705.0	1703454825	Bangkok, Thailand						13.664722269613994	100.504822				30.0			Thailand
1703454969.0	1703454849.0	1703454945	Phnom Penh, Cambodia						11.489386750400048	104.913208				24.0			Cambodia
1703455089.0	1703454969.0	1703455065	Da Nang, Vietnam						15.931464015103407	108.216667				24.0			Vietnam
1703455209.0	1703455089.0	1703455185	Hanoi, Vietnam						20.897383508835315	105.847122				24.0			Vietnam
1703455365.0	1703455215.0	1703455335	Chiang Mai, Thailand						18.66987982239495	98.9865				30.0			Thailand
1703455443.0	1703455353.0	1703455425	Vientiane, Laos						17.852702449905973	102.611519				18.0			Laos
1703455605.0	1703455455.0	1703455575	Yangon, Burma						16.697679094511486	96.15469400000002				30.0			Myanmar
1703455863.0	1703455623.0	1703455815	Lhasa, Tibet, China						29.480490712573687	91.140856				48.0			China
1703456103.0	1703455863.0	1703456055	Zhangye, China						38.74456062876319	100.457314				48.0			China
1703456271.0	1703456091.0	1703456235	Ulaanbaatar, Mongolia						47.73705486062967	106.912308				36.0			Mongolia
1703456739.0	1703456319.0	1703456655	Norilsk, Russia						69.20237865366005	88.22360000000002				84.0			Russia
1703457015.0	1703456715.0	1703456955	Burmistrovo, Russia						54.45267000856892	82.836984				60.0			Russia
1703457135.0	1703456985.0	1703457105	Astana, Kazakhstan						51.00136639195029	71.432091				30.0			Kazakhstan
1703457321.0	1703457141.0	1703457285	Bishkek, Kyrgyzstan						42.6782001035533	74.587891				36.0			Kyrgyzstan
1703457717.0	1703457357.0	1703457645	Gangtok, Inida						27.173372872484176	88.62000000000002				72.0			India
1703457681.0	1703457651.0	1703457675	Thimphu, Bhutan						27.31107246061018	89.661888				6.0			Bhutan
1703457783.0	1703457693.0	1703457765	Dhaka, Bangladesh						23.56843414293132	90.407112				18.0			Bangladesh
1703457837.0	1703457777.0	1703457825	Kolkata, India						22.43651310937501	88.3639				12.0			India
1703457969.0	1703457849.0	1703457945	Kathmandu, Nepal						27.543933944132807	85.31749699999999				24.0			Nepal
1703458161.0	1703457981.0	1703458125	Mussoorie, India						30.289922872468257	78.07424				36.0			India
1703458197.0	1703458137.0	1703458185	New Delhi, India						28.47447725772932	77.21618889				12.0			India
1703458689.0	1703458269.0	1703458605	Colombo, Sri Lanka						6.881272201931607	79.8722				84.0			Sri Lanka
1703458893.0	1703458653.0	1703458845	Addu City, Maldives						-0.6370071858009526	73.157997				48.0			Maldives
1703459277.0	1703458917.0	1703459205	Bangalore, India						12.88700689309695	77.60482				72.0			India
1703459421.0	1703459241.0	1703459385	Mumbai, India						18.957632351721553	72.875877				36.0			India
1703459493.0	1703459403.0	1703459475	Ahmedabad, India						22.89504922735709	72.6167				18.0			India
1703459619.0	1703459499.0	1703459595	Karachi, Pakistan						24.743169234367233	67.028511				24.0			Pakistan
1703459847.0	1703459637.0	1703459805	Lahore, Pakistan						31.368144235430194	74.303482				42.0			Pakistan
1703459895.0	1703459820.0	1703459880	Islamabad, Pakistan						33.53240915020665	73.075912				15.0			Pakistan
1703459952.0	1703459892.0	1703459940	Gilgit, Pakistan						35.7382250252053	74.308333				12.0			Pakistan
1703460048.0	1703459958.0	1703460030	Dushanbe, Tajikistan						38.371901223953024	68.774971				18.0			Tajikistan
1703460084.0	1703460039.0	1703460075	Samarkand, Uzbekistan						39.45067268756002	66.9412				9.0			Uzbekistan
1703460327.0	1703460117.0	1703460285	Karsakpay, Kazakhstan						47.642373544494276	66.72713611				42.0			Kazakhstan
1703460519.0	1703460324.0	1703460480	Chelyabinsk, Russia						54.986060470120485	61.40000200000001				39.0			Russia
1703460534.0	1703460489.0	1703460525	Yekaterinburg, Russia						56.65686190690295	60.58333300000001				9.0			Russia
1703460849.0	1703460579.0	1703460795	Volgograd, Russia						48.512712638676554	44.452970000000015				54.0			Russia
1703461155.0	1703460855.0	1703461095	Ashgabat, Turkmenistan						37.76382275824941	58.390319999999996				60.0			Turkmenistan
1703461419.0	1703461149.0	1703461365	Dubai, United Arab Emirates						25.12119926221746	55.30864999999999				54.0			United Arab Emirates
1703461473.0	1703461383.0	1703461455	Muscat Governorate, Oman						23.468176520302055	58.54024167				18.0			Oman
1703461563.0	1703461473.0	1703461545	Abu Dhabi, United Arab Emirates						24.324421898891224	54.37173800000001				18.0			United Arab Emirates
1703461905.0	1703461605.0	1703461845	Tehran, Iran						35.5139759141082	51.424400000000006				60.0			Iran
1703461953.0	1703461863.0	1703461935	Baku, Azerbaijan						40.18830061800519	49.802841				18.0			
1703462043.0	1703461953.0	1703462025	Tbilisi, Georgia						41.530723389306424	44.783131				18.0			Georgia
1703462061.0	1703462031.0	1703462055	Yerevan, Armenia						39.99312159791156	44.555494				6.0			Armenia
1703462127.0	1703462067.0	1703462115	Ganja, Azerbaijan						40.494255553535936	46.34875100000001				12.0			Azerbaijan
1703462151.0	1703462121.0	1703462145	Vanadzor, Armenia						40.62256280176457	44.48830000000001				6.0			Armenia
1703462361.0	1703462181.0	1703462325	Khorramabad, Iran						33.31095094413013	48.35583300000001				36.0			Iran
1703462577.0	1703462367.0	1703462535	Manama, Bahrain						26.06445465361606	50.583332999999996				42.0			Bahrain
1703462571.0	1703462541.0	1703462565	Doha, Qatar						25.14621910107813	51.519445000000005				6.0			Qatar
1703462853.0	1703462613.0	1703462805	Socotra Island, Yemen						12.442986941854505	53.905315				48.0			Yemen
1703463093.0	1703462853.0	1703463045	Mogadishu, Somalia						2.027517068186875	45.344139000000006				48.0			Somalia
1703463333.0	1703463093.0	1703463285	Victoria, Seychelles						-4.567866291875532	55.453331000000006				48.0			Seychelles
1703463501.0	1703463321.0	1703463465	Verte Rocks, Glorioso Islands						-11.495893754556784	47.33171889000001				36.0			
1703463717.0	1703463507.0	1703463675	Saint-Denis, Réunion						-20.764767359491135	55.47104000000001				42.0			
1703463747.0	1703463687.0	1703463735	Port Louis, Mauritius						-20.03259848400894	57.501720000000006				12.0			Mauritius
1703464347.0	1703463837.0	1703464245	Port-aux-Français						-49.01956699189168	70.13				102.0			
1703465145.0	1703464395.0	1703464995	Antananarivo, Madagascar						-18.795406775934048	47.52908333				150.0			Madagascar
1703465175.0	1703465025.0	1703465145	Moroni, Union of the Comoros						-11.597965923523494	43.264388999999994				30.0			Comoros
1703465289.0	1703465169.0	1703465265	Zanzibar, Tanzania						-6.094935490815742	39.3621				24.0			Tanzania
1703465409.0	1703465289.0	1703465385	Nairobi, Kenya						-1.2687523879268456	36.806261				24.0			Kenya
1703465637.0	1703465427.0	1703465595	Addis Ababa, Ethiopia						8.963334238385748	38.746792				42.0			Ethiopia
1703465739.0	1703465619.0	1703465715	Djibouti, Djibouti						11.519460116544577	43.14806000000001				24.0			Djibouti
1703465823.0	1703465733.0	1703465805	Sana'a, Yemen						15.25557314288842	44.20753333				18.0			Yemen
1703466021.0	1703465841.0	1703465985	Mecca, Saudi Arabia						21.29918193558886	39.828388				36.0			Saudi Arabia
1703466201.0	1703466021.0	1703466165	Riyadh, Saudi Arabia						24.50178592531631	46.714585				36.0			Saudi Arabia
1703466309.0	1703466189.0	1703466285	Kuwait City, Kuwait						29.187922435592245	47.99720833000001				24.0			Kuwait
1703466321.0	1703466291.0	1703466315	Al Basrah, Iraq						30.351957883649582	47.82337222				6.0			Iraq
1703466423.0	1703466333.0	1703466405	Baghdad, Iraq						33.162147375328665	44.39389				18.0			Iraq
1703466621.0	1703466441.0	1703466585	Adana, Turkey						36.8152031117952	35.321333				36.0			Türkiye
1703466945.0	1703466645.0	1703466885	Kyiv, Ukraine						50.260933485804195	30.523333000000004				60.0			Ukraine
1703467101.0	1703466921.0	1703467065	Moscow, Russia						55.577716970070774	37.61497500000001				36.0			Russia
1703467425.0	1703467125.0	1703467365	Pechora, Russia						65.01966599410504	57.24999999999999				60.0			Russia
1703467725.0	1703467425.0	1703467665	St. Petersburg, Russia						59.765993490452885	30.306114999999995				60.0			Russia
1703467737.0	1703467677.0	1703467725	Tartu, Estonia						58.20446613892428	26.72614				12.0			Estonia
1703467815.0	1703467740.0	1703467800	Mikkeli, Finland						61.522332570288626	27.266667				15.0			Finland
1703467854.0	1703467809.0	1703467845	Helsinki, Finland						60.00481313738723	24.932580000000005				9.0			
1703467953.0	1703467863.0	1703467935	Riga, Latvia						56.769825528984704	24.114901				18.0			Latvia
1703468025.0	1703467950.0	1703468010	Vilnius, Lithuania						54.50812589289761	25.269258				15.0			Lithuania
1703468280.0	1703468055.0	1703468235	Odessa, Ukraine						46.29352527040261	30.743444				45.0			Ukraine
1703468289.0	1703468244.0	1703468280	Chișinău, Moldova						46.820306710955755	28.860600000000005				9.0			Moldova
1703468370.0	1703468295.0	1703468355	Bucharest, Romania						44.2419253766468	26.102965				15.0			Romania
1703468427.0	1703468367.0	1703468415	Plovdiv, Bulgaria						41.944338257307585	24.74829				12.0			Bulgaria
1703468505.0	1703468430.0	1703468490	Istanbul, Turkey						40.82232773337449	28.974399999999992				15.0			Türkiye
1703468580.0	1703468505.0	1703468565	Ankara, Turkey						39.75363685334944	32.86048				15.0			Türkiye
1703468781.0	1703468601.0	1703468745	Van, Turkey						38.30226057586874	43.40925556				36.0			Türkiye
1703469033.0	1703468793.0	1703468985	Antalya, Turkey						36.69448060827222	30.70920500000001				48.0			
1703469129.0	1703469009.0	1703469105	Santorini, Greece						36.23632714619656	25.431700000000003				24.0			
1703469177.0	1703469117.0	1703469165	Athens, Greece						37.79128524846675	23.7278				12.0			Greece
1703469237.0	1703469177.0	1703469225	Izmir, Turkey						38.23297530178029	27.128299999999996				12.0			Türkiye
1703469513.0	1703469273.0	1703469465	Amman, Jordan						31.777475653658595	35.933331				48.0			Jordan
1703469501.0	1703469471.0	1703469495	Tel Aviv, Isreal						31.8937767535399	34.783333				6.0			Israel
1703469603.0	1703469513.0	1703469585	Nicosia, Cyprus						34.985708633637294	33.366699000000004				18.0			Cyprus
1703469657.0	1703469597.0	1703469645	Zahle, Lebanon						33.655597352190085	35.916667				12.0			Lebanon
1703469717.0	1703469657.0	1703469705	Bethlehem, Palestine						31.538192690309362	35.2				12.0			Palestinian Territories
1703469831.0	1703469726.0	1703469810	Cairo, Egypt						29.890045898418833	31.2262				21.0			Egypt
1703469864.0	1703469819.0	1703469855	Alexandria, Egypt						31.02200388449674	29.88987				9.0			Egypt
1703470035.0	1703469885.0	1703470005	Luxor, Egypt						25.552318639326213	32.649395				30.0			Egypt
1703470293.0	1703470053.0	1703470245	Asmara, Eritrea						15.225013318663157	38.925				48.0			Eritrea
1703470425.0	1703470275.0	1703470395	Khartoum, Sudan						15.491582785819139	32.518829				30.0			Sudan
1703470719.0	1703470449.0	1703470665	Juba, South Sudan						4.817251234950055	31.60463				54.0			South Sudan
1703470809.0	1703470689.0	1703470785	Kampala, Uganda						0.32320223018062116	32.586971				24.0			Uganda
1703470893.0	1703470803.0	1703470875	Kigali, Rwanda						-1.9308827575957648	30.05945000000001				18.0			Rwanda
1703470929.0	1703470884.0	1703470920	Bujumbura, Burundi						-3.349967592979581	29.356070000000003				9.0			Burundi
1703471118.0	1703470953.0	1703471085	Kamina, Democratic Republic of the Congo						-8.678818580458307	25.01086				33.0			Democratic Republic of the Congo
1703471301.0	1703471121.0	1703471265	Lusaka, Zambia						-15.310562937599869	28.282400000000006				36.0			Zambia
1703471409.0	1703471289.0	1703471385	Lilongwe, Malawi						-13.7914511172221	33.7733				24.0			Malawi
1703471565.0	1703471415.0	1703471535	Beira, Mozambique						-19.69766631225871	34.851009999999995				30.0			Mozambique
1703471679.0	1703471559.0	1703471655	Bulawayo, Zimbabwe						-20.04795363698275	28.58115				24.0			Zimbabwe
1703471799.0	1703471679.0	1703471775	Gaborone, Botswana						-24.509720275350098	25.919064999999993				24.0			Botswana
1703471847.0	1703471787.0	1703471835	Johannesburg, South Africa						-26.052822686273615	28.040034999999996				12.0			South Africa
1703471943.0	1703471853.0	1703471925	Maputo, Mozambique						-25.81552115401119	32.5833				18.0			Mozambique
1703472069.0	1703471949.0	1703472045	Maseru, Lesotho						-29.174751131578628	27.499700999999998				24.0			South Africa
1703472261.0	1703472081.0	1703472225	Cape Town, South Africa						-33.74112298676523	18.42197000000001				36.0			South Africa
1703472513.0	1703472273.0	1703472465	Windhoek, Namibia						-22.435546298078084	17.090739999999997				48.0			Namibia
1703472825.0	1703472525.0	1703472765	Luanda, Angola						-8.91884561721101	13.312591000000001				60.0			Angola
1703472909.0	1703472789.0	1703472885	Kinshasa, Democratic Republic of the Congo						-4.296156562849119	15.322222				24.0			Democratic Republic of the Congo
1703472993.0	1703472903.0	1703472975	Moanda, Gabon						-1.5561848809714036	13.2				18.0			Gabon
1703473119.0	1703472999.0	1703473095	Port-Gentil, Gabon						-0.7216767919746679	8.787300000000002				24.0			Gabon
1703473203.0	1703473113.0	1703473185	Malabo, Equatorial Guinea						3.724907896253854	8.777619999999999				18.0			Equatorial Guinea
1703473257.0	1703473197.0	1703473245	Yaoundé, Cameroon						3.8409701147079667	11.51538056				12.0			Cameroon
1703473461.0	1703473281.0	1703473425	Bangui, Central African Republic						4.344170407448524	18.562778				36.0			Central African Republic
1703473713.0	1703473473.0	1703473665	Abuja, Nigeria						9.006977835911247	7.48333				48.0			Nigeria
1703473809.0	1703473689.0	1703473785	Cotonou, Benin						6.31472069369743	2.4400900000000005				24.0			Benin
1703474019.0	1703473824.0	1703473980	Agadez, Niger						16.86419880786383	7.986197222000004				39.0			Niger
1703474196.0	1703474016.0	1703474160	Ati, Chad						13.129075518529667	18.338011				36.0			Chad
1703474448.0	1703474208.0	1703474400	Sabha, Libya						26.86926508571719	14.459240000000001				48.0			Libya
1703474562.0	1703474427.0	1703474535	Tripoli, Libya						32.70249905395256	13.18732				27.0			Libya
1703474625.0	1703474550.0	1703474610	Valletta, Malta						35.71094326597318	14.51178				15.0			
1703474790.0	1703474640.0	1703474760	Rome, Italy						41.71188124228749	12.495760000000004				30.0			Italy
1703474850.0	1703474775.0	1703474835	Fonni, Sardinia, Italy						39.928801701870825	9.2526				15.0			Italy
1703474889.0	1703474844.0	1703474880	Ajaccio, Corsica, France						41.717564530084324	8.711370000000002				9.0			France
1703474970.0	1703474895.0	1703474955	Fidenza, Italy						44.67386415488816	10.061594999999999				15.0			Italy
1703475009.0	1703474964.0	1703475000	San Marino						43.74445001479557	12.4407				9.0			Italy
1703475126.0	1703475021.0	1703475105	Dubrovnik, Croatia						42.451042015656434	18.110657999999997				21.0			
1703475141.0	1703475111.0	1703475135	Podgorica, Montenegro						42.24383680428467	19.263901				6.0			Montenegro
1703475189.0	1703475144.0	1703475180	Tirana, Albania						41.13156583471752	19.825150000000008				9.0			Albania
1703475252.0	1703475192.0	1703475240	Veles, Republic of Macedonia						41.52671969358993	21.769501				12.0			North Macedonia
1703475276.0	1703475246.0	1703475270	Pristina, Kosovo						42.4720879939315	21.166200999999997				6.0			Kosovo
1703475342.0	1703475282.0	1703475330	Sarajevo, Bosnia and Herzegovina						43.65749907052778	18.26979167				12.0			Bosnia and Herzegovina
1703475474.0	1703475354.0	1703475450	Venice, Italy						45.24089036466938	12.316700000000003				24.0			Italy
1703475522.0	1703475462.0	1703475510	Maribor, Slovenia						46.369837293575124	15.6482				12.0			Slovenia
1703475618.0	1703475528.0	1703475600	Belgrade, Serbia						44.61996238189465	20.462419				18.0			Serbia
1703475672.0	1703475612.0	1703475660	Budapest, Hungary						47.314485612273224	19.06482				12.0			Hungary
1703475732.0	1703475672.0	1703475720	Kraków, Poland						49.87052657238622	19.932600000000004				12.0			Poland
1703475828.0	1703475738.0	1703475810	Vienna, Austria						48.01125366135325	16.368799				18.0			Austria
1703475918.0	1703475828.0	1703475900	Freising, Germany						48.21175161982838	11.741185				18.0			Germany
1703475972.0	1703475912.0	1703475960	Prague, Czech Republic						49.88957256458182	14.43323				12.0			Czech Republic
1703476032.0	1703475972.0	1703476020	Bratislava, Slovakia						47.957172889394144	17.106699999999996				12.0			Austria
1703476164.0	1703476044.0	1703476140	Warsaw, Poland						52.048880716782584	21.009390000000003				24.0			Poland
1703476212.0	1703476152.0	1703476200	Gdansk, Poland						54.17067118036393	18.65111999999999				12.0			Poland
1703476344.0	1703476224.0	1703476320	Stockholm, Sweden						59.163168168952	18.06284				24.0			Sweden
1703476536.0	1703476356.0	1703476500	Berlin, Germany						52.330075546624286	13.376987				36.0			Germany
1703476608.0	1703476518.0	1703476590	Copenhagen, Denmark						55.496876845881545	12.569354999999998				18.0			
1703477058.0	1703476668.0	1703476980	Alta, Norway						69.84303423968197	23.268476				78.0			Norway
1703477196.0	1703477016.0	1703477160	Trondheim, Norway						63.27545270298625	10.393332999999998				36.0			Norway
1703477268.0	1703477178.0	1703477250	Bergen, Norway						60.22510834687946	5.33275				18.0			Norway
1703477466.0	1703477286.0	1703477430	Wolfsburg, Germany						52.236899220427084	10.787222000000003				36.0			Germany
1703477610.0	1703477460.0	1703477580	Zurich, Switzerland						47.18526005002031	8.539550000000004				30.0			Switzerland
1703477652.0	1703477592.0	1703477640	Kaiserslautern, Germany						49.25452022578314	7.768889000000001				12.0			Germany
1703477748.0	1703477658.0	1703477730	Munich, Germany						47.942006313003155	11.566667000000002				18.0			Germany
1703477820.0	1703477745.0	1703477805	Basel, Switzerland						47.36301550532426	7.590556000000003				15.0			Switzerland
1703477913.0	1703477823.0	1703477895	Hallstatt, Austria						47.37030483869574	13.648999999999997				18.0			Austria
1703478003.0	1703477913.0	1703477985	Brescia, Italy						45.34927132532703	10.216667000000001				18.0			Italy
1703478039.0	1703477994.0	1703478030	Vaduz, Liechtenstein						46.95341804215505	9.518865999999997				9.0			Switzerland
1703478210.0	1703478060.0	1703478180	Amsterdam, The Netherlands						52.18687564101428	4.89319				30.0			Netherlands
1703478252.0	1703478192.0	1703478240	Vleteren, Belgium						50.741246527397585	2.732755				12.0			France
1703478294.0	1703478249.0	1703478285	Roermond, The Netherlands						51.0119318443048	5.983332999999999				9.0			Germany
1703478321.0	1703478291.0	1703478315	Brussels, Belgium						50.65253759613674	4.356400000000002				6.0			Belgium
1703478387.0	1703478327.0	1703478375	Luxembourg, Luxembourg						49.41950047251793	6.12997				12.0			France
1703478465.0	1703478390.0	1703478450	Paris, France						48.666164356917996	2.3412				15.0			France
1703478558.0	1703478468.0	1703478540	Limoges, France						45.63644737411839	1.2619500000000001				18.0			France
1703478666.0	1703478561.0	1703478645	Metz, France						48.92975639998998	6.177778000000001				21.0			France
1703478735.0	1703478660.0	1703478720	Geneva, Switzerland						46.01609152068107	6.142701				15.0			France
1703478810.0	1703478735.0	1703478795	Monaco						43.54672323451999	7.425483000000001				15.0			
1703478867.0	1703478807.0	1703478855	Marseille, France						43.101663480808845	5.372474999999999				12.0			
1703478981.0	1703478876.0	1703478960	Andorra la Vella, Andorra						42.31579612190021	1.5225				21.0			Spain
1703479068.0	1703478978.0	1703479050	Bilbao, Spain						43.07661891999287	-2.946119000000001				18.0			Spain
1703479194.0	1703479074.0	1703479170	Barcelona, Spain						41.194778322807494	2.168745				24.0			
1703479350.0	1703479200.0	1703479320	Madrid, Spain						40.23045285450437	-3.705774				30.0			Spain
1703479500.0	1703479350.0	1703479470	Palma, Majorca						39.38262260371087	2.646939999999999				30.0			
1703479722.0	1703479512.0	1703479680	Tangier, Morocco						35.58434786325432	-5.8				42.0			Morocco
1703479752.0	1703479692.0	1703479740	Córdoba, Spain						37.691591293768	-4.778403				12.0			Spain
1703480028.0	1703479788.0	1703479980	Tunis, Tunisia						36.61425675292506	10.17263				48.0			Tunisia
1703480268.0	1703480028.0	1703480220	Ain Salah, Algeria						27.039354014290417	2.479991667				48.0			Algeria
1703480508.0	1703480268.0	1703480460	Diré, Mali						16.163850058057378	-3.3983166670000005				48.0			Mali
1703480676.0	1703480496.0	1703480640	Kiffa, Mauritania						16.511897642414386	-11.403879999999997				36.0			Mauritania
1703480784.0	1703480664.0	1703480760	Bamako, Mali						12.57095226109038	-7.986480000000001				24.0			Mali
1703480904.0	1703480784.0	1703480880	Bobo-Dioulasso, Burkina Faso						11.105131198789628	-4.2917700000000005				24.0			Burkina Faso
1703481060.0	1703480910.0	1703481030	Lomé, Togo						6.089730343775006	1.2274500000000002				30.0			Togo
